millis,state,yaw_deg,pitch_deg,roll_deg,ax_G,ay_G,az_G,pressure_kPa,altitude_ft
12408,GROUND,0.000,0.000,0.000,0.000,0.000,0.000,0.000,0.000
12410,GROUND,0.000,0.000,0.000,0.000,0.000,0.000,0.000,0.000
12413,GROUND,0.000,0.000,0.000,0.000,0.000,0.000,0.000,0.000
12416,GROUND,138.997,-57.245,-171.445,-0.855,0.102,0.481,100.196,309.600
12419,GROUND,138.969,-57.229,-171.396,-0.851,0.092,0.477,100.207,306.577
12422,GROUND,138.932,-57.213,-171.333,-0.829,0.109,0.477,100.207,306.577
12425,GROUND,138.883,-57.192,-171.254,-0.812,0.116,0.479,100.207,306.577
12428,GROUND,138.844,-57.173,-171.182,-0.819,0.093,0.476,100.196,309.600
12431,GROUND,138.844,-57.173,-171.182,-0.819,0.093,0.476,100.196,309.600
12433,GROUND,138.844,-57.173,-171.182,-0.819,0.093,0.476,100.196,309.600
12435,GROUND,138.844,-57.173,-171.182,-0.819,0.093,0.476,100.196,309.600
12438,GROUND,138.844,-57.173,-171.182,-0.819,0.093,0.476,100.196,309.600
12442,GROUND,138.816,-57.156,-171.120,-0.828,0.079,0.474,100.207,306.577
12445,GROUND,138.802,-57.135,-171.073,-0.840,0.072,0.475,100.211,305.476
12448,GROUND,138.768,-57.012,-170.984,-1.002,-0.095,0.560,100.207,306.577
12452,GROUND,138.681,-57.036,-170.979,-0.824,0.058,0.539,100.207,306.577
12455,GROUND,138.604,-57.054,-170.954,-0.759,0.097,0.536,100.207,306.577
12458,GROUND,138.543,-57.052,-170.914,-0.726,0.120,0.565,100.207,306.577
12461,GROUND,138.505,-57.028,-170.868,-0.755,0.121,0.549,100.196,309.600
12463,GROUND,138.505,-57.028,-170.868,-0.755,0.121,0.549,100.196,309.600
12466,GROUND,138.505,-57.028,-170.868,-0.755,0.121,0.549,100.196,309.600
12468,GROUND,138.505,-57.028,-170.868,-0.755,0.121,0.549,100.196,309.600
12470,GROUND,138.505,-57.028,-170.868,-0.755,0.121,0.549,100.196,309.600
12475,GROUND,138.492,-56.990,-170.837,-0.789,0.100,0.521,100.218,303.544
12478,GROUND,138.498,-56.940,-170.818,-0.827,0.105,0.505,100.211,305.476
12481,GROUND,138.517,-56.881,-170.798,-0.853,0.127,0.482,100.222,302.444
12484,GROUND,138.550,-56.819,-170.787,-0.875,0.104,0.465,100.211,305.476
12487,GROUND,138.596,-56.755,-170.787,-0.877,0.102,0.458,100.211,305.476
12491,GROUND,138.596,-56.755,-170.787,-0.877,0.102,0.458,100.211,305.476
12494,GROUND,138.596,-56.755,-170.787,-0.877,0.102,0.458,100.211,305.476
12497,GROUND,138.596,-56.755,-170.787,-0.877,0.102,0.458,100.211,305.476
12501,GROUND,138.653,-56.694,-170.797,-0.874,0.100,0.454,100.196,309.600
12504,GROUND,138.720,-56.637,-170.816,-0.869,0.098,0.454,100.207,306.577
12507,GROUND,138.795,-56.587,-170.843,-0.865,0.094,0.457,100.196,309.600
12510,GROUND,138.878,-56.544,-170.879,-0.860,0.090,0.463,100.211,305.476
12513,GROUND,138.967,-56.510,-170.925,-0.861,0.083,0.476,100.207,306.577
12516,GROUND,138.967,-56.510,-170.925,-0.861,0.083,0.476,100.207,306.577
12519,GROUND,138.967,-56.510,-170.925,-0.861,0.083,0.476,100.207,306.577
12521,GROUND,138.967,-56.510,-170.925,-0.861,0.083,0.476,100.207,306.577
12527,GROUND,139.060,-56.484,-170.978,-0.861,0.080,0.477,100.207,306.577
12530,GROUND,139.157,-56.462,-171.040,-0.856,0.075,0.499,100.207,306.577
12533,GROUND,139.256,-56.442,-171.110,-0.852,0.075,0.511,100.207,306.577
12536,GROUND,139.357,-56.421,-171.187,-0.841,0.071,0.530,100.207,306.577
12540,GROUND,139.453,-56.399,-171.266,-0.821,0.065,0.542,100.211,305.476
12542,GROUND,139.453,-56.399,-171.266,-0.821,0.065,0.542,100.211,305.476
12545,GROUND,139.453,-56.399,-171.266,-0.821,0.065,0.542,100.211,305.476
12548,GROUND,139.453,-56.399,-171.266,-0.821,0.065,0.542,100.211,305.476
12553,GROUND,139.540,-56.372,-171.335,-0.827,0.085,0.538,100.211,305.476
12556,GROUND,139.622,-56.339,-171.400,-0.831,0.064,0.540,100.207,306.577
12560,GROUND,139.699,-56.302,-171.466,-0.841,0.056,0.546,100.218,303.544
12563,GROUND,139.771,-56.260,-171.531,-0.851,0.049,0.546,100.207,306.577
12566,GROUND,139.834,-56.217,-171.594,-0.855,0.035,0.549,100.196,309.600
12569,GROUND,139.834,-56.217,-171.594,-0.855,0.035,0.549,100.196,309.600
12571,GROUND,139.834,-56.217,-171.594,-0.855,0.035,0.549,100.196,309.600
12574,GROUND,139.834,-56.217,-171.594,-0.855,0.035,0.549,100.196,309.600
12580,GROUND,139.892,-56.174,-171.651,-0.867,0.040,0.539,100.211,305.476
12583,GROUND,139.947,-56.130,-171.703,-0.866,0.050,0.543,100.207,306.577
12586,GROUND,139.997,-56.085,-171.752,-0.869,0.051,0.537,100.196,309.600
12589,GROUND,140.053,-56.041,-171.800,-0.876,0.060,0.524,100.207,306.577
12592,GROUND,140.122,-55.998,-171.852,-0.877,0.063,0.514,100.196,309.600
12595,GROUND,140.122,-55.998,-171.852,-0.877,0.063,0.514,100.196,309.600
12598,GROUND,140.122,-55.998,-171.852,-0.877,0.063,0.514,100.196,309.600
12600,GROUND,140.122,-55.998,-171.852,-0.877,0.063,0.514,100.196,309.600
12606,GROUND,140.204,-55.957,-171.905,-0.878,0.073,0.507,100.207,306.577
12609,GROUND,140.299,-55.916,-171.960,-0.889,0.084,0.494,100.211,305.476
12612,GROUND,140.407,-55.877,-172.014,-0.899,0.093,0.485,100.200,308.500
12615,GROUND,140.527,-55.841,-172.071,-0.908,0.100,0.481,100.200,308.500
12618,GROUND,140.662,-55.808,-172.130,-0.915,0.107,0.476,100.222,302.444
12621,GROUND,140.662,-55.808,-172.130,-0.915,0.107,0.476,100.222,302.444
12624,GROUND,140.662,-55.808,-172.130,-0.915,0.107,0.476,100.222,302.444
12627,GROUND,140.662,-55.808,-172.130,-0.915,0.107,0.476,100.222,302.444
12632,GROUND,140.810,-55.777,-172.193,-0.911,0.114,0.476,100.196,309.600
12635,GROUND,140.969,-55.749,-172.260,-0.909,0.118,0.482,100.200,308.500
12638,GROUND,141.140,-55.724,-172.330,-0.901,0.121,0.484,100.200,308.500
12641,GROUND,141.320,-55.706,-172.403,-0.890,0.121,0.494,100.211,305.476
12644,GROUND,141.505,-55.693,-172.479,-0.885,0.120,0.497,100.211,305.476
12647,GROUND,141.505,-55.693,-172.479,-0.885,0.120,0.497,100.211,305.476
12650,GROUND,141.505,-55.693,-172.479,-0.885,0.120,0.497,100.211,305.476
12653,GROUND,141.505,-55.693,-172.479,-0.885,0.120,0.497,100.211,305.476
12658,GROUND,141.691,-55.690,-172.557,-0.891,0.116,0.513,100.189,311.533
12661,GROUND,141.881,-55.695,-172.638,-0.888,0.116,0.519,100.211,305.476
12664,GROUND,142.072,-55.707,-172.726,-0.887,0.098,0.527,100.207,306.577
12668,GROUND,142.257,-55.724,-172.816,-0.872,0.097,0.547,100.211,305.476
12671,GROUND,142.430,-55.741,-172.898,-0.857,0.101,0.558,100.211,305.476
12675,GROUND,142.430,-55.741,-172.898,-0.857,0.101,0.558,100.211,305.476
12677,GROUND,142.430,-55.741,-172.898,-0.857,0.101,0.558,100.211,305.476
12680,GROUND,142.430,-55.741,-172.898,-0.857,0.101,0.558,100.211,305.476
12684,GROUND,142.593,-55.755,-172.969,-0.843,0.095,0.564,100.211,305.476
12687,GROUND,142.744,-55.764,-173.030,-0.834,0.087,0.572,100.211,305.476
12691,GROUND,142.881,-55.768,-173.080,-0.825,0.077,0.569,100.211,305.476
12694,GROUND,143.007,-55.766,-173.118,-0.820,0.068,0.571,100.196,309.600
12697,GROUND,143.123,-55.763,-173.143,-0.815,0.058,0.569,100.207,306.577
12700,GROUND,143.123,-55.763,-173.143,-0.815,0.058,0.569,100.207,306.577
12703,GROUND,143.123,-55.763,-173.143,-0.815,0.058,0.569,100.207,306.577
12705,GROUND,143.123,-55.763,-173.143,-0.815,0.058,0.569,100.207,306.577
12711,GROUND,143.226,-55.757,-173.155,-0.810,0.051,0.563,100.200,308.500
12714,GROUND,143.318,-55.755,-173.156,-0.816,0.036,0.563,100.211,305.476
12717,GROUND,143.397,-55.759,-173.152,-0.820,0.016,0.568,100.200,308.500
12720,GROUND,143.457,-55.772,-173.137,-0.820,0.010,0.570,100.200,308.500
12723,GROUND,143.497,-55.792,-173.109,-0.815,0.008,0.576,100.211,305.476
12726,GROUND,143.497,-55.792,-173.109,-0.815,0.008,0.576,100.211,305.476
12739,GROUND,143.497,-55.792,-173.109,-0.815,0.008,0.576,100.211,305.476
12743,GROUND,143.513,-55.888,-172.966,-0.793,0.005,0.592,100.196,309.600
12746,GROUND,143.490,-55.923,-172.896,-0.788,0.008,0.594,100.211,305.476
12749,GROUND,143.452,-55.956,-172.813,-0.786,0.008,0.589,100.211,305.476
12752,GROUND,143.452,-55.956,-172.813,-0.786,0.008,0.589,100.211,305.476
12754,GROUND,143.452,-55.956,-172.813,-0.786,0.008,0.589,100.211,305.476
12757,GROUND,143.452,-55.956,-172.813,-0.786,0.008,0.589,100.211,305.476
12759,GROUND,143.452,-55.956,-172.813,-0.786,0.008,0.589,100.211,305.476
12763,GROUND,143.404,-55.984,-172.719,-0.783,0.003,0.584,100.211,305.476
12766,GROUND,143.346,-56.008,-172.616,-0.777,-0.001,0.578,100.211,305.476
12770,GROUND,143.280,-56.027,-172.508,-0.778,-0.001,0.564,100.222,302.444
12772,GROUND,143.207,-56.044,-172.398,-0.782,-0.002,0.560,100.211,305.476
12775,GROUND,143.134,-56.059,-172.292,-0.784,0.006,0.548,100.211,305.476
12778,GROUND,143.134,-56.059,-172.292,-0.784,0.006,0.548,100.211,305.476
12781,GROUND,143.134,-56.059,-172.292,-0.784,0.006,0.548,100.211,305.476
12783,GROUND,143.134,-56.059,-172.292,-0.784,0.006,0.548,100.211,305.476
12786,GROUND,143.134,-56.059,-172.292,-0.784,0.006,0.548,100.211,305.476
12789,GROUND,143.063,-56.074,-172.188,-0.787,0.010,0.541,100.211,305.476
12792,GROUND,142.989,-56.086,-172.083,-0.791,0.019,0.536,100.200,308.500
12795,GROUND,142.905,-56.099,-171.980,-0.796,0.021,0.537,100.200,308.500
12799,GROUND,142.811,-56.110,-171.874,-0.789,0.031,0.530,100.211,305.476
12802,GROUND,142.707,-56.120,-171.760,-0.789,0.038,0.529,100.211,305.476
12804,GROUND,142.707,-56.120,-171.760,-0.789,0.038,0.529,100.211,305.476
12807,GROUND,142.707,-56.120,-171.760,-0.789,0.038,0.529,100.211,305.476
12810,GROUND,142.707,-56.120,-171.760,-0.789,0.038,0.529,100.211,305.476
12812,GROUND,142.707,-56.120,-171.760,-0.789,0.038,0.529,100.211,305.476
12815,GROUND,142.585,-56.126,-171.635,-0.787,0.047,0.523,100.196,309.600
12819,GROUND,142.442,-56.127,-171.491,-0.789,0.053,0.524,100.211,305.476
12822,GROUND,142.282,-56.133,-171.337,-0.790,0.049,0.526,100.200,308.500
12825,GROUND,142.108,-56.135,-171.164,-0.779,0.073,0.510,100.200,308.500
12828,GROUND,141.923,-56.134,-170.976,-0.795,0.068,0.495,100.211,305.476
12831,GROUND,141.923,-56.134,-170.976,-0.795,0.068,0.495,100.211,305.476
12833,GROUND,141.923,-56.134,-170.976,-0.795,0.068,0.495,100.211,305.476
12836,GROUND,141.923,-56.134,-170.976,-0.795,0.068,0.495,100.211,305.476
12838,GROUND,141.923,-56.134,-170.976,-0.795,0.068,0.495,100.211,305.476
12842,GROUND,141.732,-56.130,-170.780,-0.813,0.073,0.492,100.200,308.500
12845,GROUND,141.537,-56.127,-170.578,-0.832,0.081,0.484,100.222,302.444
12848,GROUND,141.346,-56.125,-170.377,-0.852,0.087,0.471,100.216,304.099
12852,GROUND,141.166,-56.127,-170.182,-0.873,0.089,0.465,100.211,305.476
12854,GROUND,141.001,-56.134,-170.000,-0.884,0.092,0.462,100.200,308.500
12857,GROUND,141.001,-56.134,-170.000,-0.884,0.092,0.462,100.200,308.500
12859,GROUND,141.001,-56.134,-170.000,-0.884,0.092,0.462,100.200,308.500
12862,GROUND,141.001,-56.134,-170.000,-0.884,0.092,0.462,100.200,308.500
12868,GROUND,140.857,-56.151,-169.838,-0.913,0.093,0.466,100.216,304.099
12871,GROUND,140.731,-56.176,-169.698,-0.922,0.105,0.469,100.211,305.476
12874,GROUND,140.627,-56.207,-169.578,-0.926,0.113,0.478,100.211,305.476
12877,GROUND,140.546,-56.242,-169.480,-0.923,0.123,0.484,100.211,305.476
12880,GROUND,140.484,-56.280,-169.400,-0.919,0.133,0.494,100.211,305.476
12883,GROUND,140.484,-56.280,-169.400,-0.919,0.133,0.494,100.211,305.476
12886,GROUND,140.484,-56.280,-169.400,-0.919,0.133,0.494,100.211,305.476
12888,GROUND,140.484,-56.280,-169.400,-0.919,0.133,0.494,100.211,305.476
12894,GROUND,140.439,-56.316,-169.338,-0.910,0.143,0.501,100.211,305.476
12897,GROUND,140.409,-56.349,-169.289,-0.904,0.151,0.502,100.211,305.476
12900,GROUND,140.396,-56.376,-169.256,-0.886,0.146,0.500,100.211,305.476
12903,GROUND,140.397,-56.396,-169.234,-0.886,0.162,0.507,100.211,305.476
12907,GROUND,140.408,-56.409,-169.215,-0.880,0.177,0.507,100.189,311.533
12909,GROUND,140.408,-56.409,-169.215,-0.880,0.177,0.507,100.189,311.533
12912,GROUND,140.408,-56.409,-169.215,-0.880,0.177,0.507,100.189,311.533
12915,GROUND,140.408,-56.409,-169.215,-0.880,0.177,0.507,100.189,311.533
12920,GROUND,140.425,-56.420,-169.198,-0.874,0.164,0.506,100.211,305.476
12923,GROUND,140.451,-56.428,-169.190,-0.870,0.143,0.501,100.211,305.476
12926,GROUND,140.480,-56.437,-169.192,-0.869,0.130,0.504,100.211,305.476
12930,GROUND,140.503,-56.447,-169.199,-0.861,0.127,0.508,100.200,308.500
12933,GROUND,140.521,-56.461,-169.209,-0.845,0.116,0.515,100.200,308.500
12935,GROUND,140.521,-56.461,-169.209,-0.845,0.116,0.515,100.200,308.500
12938,GROUND,140.521,-56.461,-169.209,-0.845,0.116,0.515,100.200,308.500
12942,GROUND,140.521,-56.461,-169.209,-0.845,0.116,0.515,100.200,308.500
12946,GROUND,140.538,-56.475,-169.224,-0.833,0.102,0.519,100.200,308.500
12950,GROUND,140.550,-56.488,-169.242,-0.821,0.102,0.527,100.200,308.500
12953,GROUND,140.558,-56.497,-169.261,-0.813,0.101,0.529,100.200,308.500
12956,GROUND,140.564,-56.503,-169.277,-0.817,0.101,0.525,100.216,304.099
12959,GROUND,140.573,-56.504,-169.290,-0.815,0.098,0.522,100.200,308.500
12962,GROUND,140.573,-56.504,-169.290,-0.815,0.098,0.522,100.200,308.500
12964,GROUND,140.573,-56.504,-169.290,-0.815,0.098,0.522,100.200,308.500
12967,GROUND,140.573,-56.504,-169.290,-0.815,0.098,0.522,100.200,308.500
12973,GROUND,140.585,-56.502,-169.300,-0.815,0.097,0.512,100.211,305.476
12976,GROUND,140.849,-56.379,-169.319,-0.803,0.098,0.482,100.200,308.500
12979,GROUND,140.889,-56.348,-169.301,-0.793,0.104,0.486,100.204,307.400
12982,GROUND,140.932,-56.318,-169.281,-0.788,0.113,0.490,100.211,305.476
12985,GROUND,140.932,-56.318,-169.281,-0.788,0.113,0.490,100.211,305.476
12988,GROUND,140.932,-56.318,-169.281,-0.788,0.113,0.490,100.211,305.476
12990,GROUND,140.932,-56.318,-169.281,-0.788,0.113,0.490,100.211,305.476
12996,GROUND,140.976,-56.287,-169.255,-0.790,0.118,0.484,100.216,304.099
12999,GROUND,141.017,-56.252,-169.221,-0.788,0.118,0.481,100.200,308.500
13002,GROUND,141.047,-56.209,-169.172,-0.783,0.119,0.480,100.189,311.533
13005,GROUND,141.049,-56.156,-169.101,-0.782,0.115,0.484,100.200,308.500
13008,GROUND,141.019,-56.092,-169.007,-0.750,0.092,0.504,100.204,307.400
13011,GROUND,141.019,-56.092,-169.007,-0.750,0.092,0.504,100.204,307.400
13014,GROUND,141.019,-56.092,-169.007,-0.750,0.092,0.504,100.204,307.400
13017,GROUND,141.019,-56.092,-169.007,-0.750,0.092,0.504,100.204,307.400
13022,GROUND,140.955,-56.019,-168.895,-0.750,0.083,0.511,100.200,308.500
13025,GROUND,140.862,-55.940,-168.759,-0.756,0.082,0.510,100.204,307.400
13028,GROUND,140.750,-55.854,-168.601,-0.748,0.072,0.517,100.204,307.400
13032,GROUND,140.625,-55.764,-168.432,-0.752,0.064,0.520,100.211,305.476
13035,GROUND,140.498,-55.677,-168.258,-0.766,0.063,0.526,100.211,305.476
13038,GROUND,140.498,-55.677,-168.258,-0.766,0.063,0.526,100.211,305.476
13041,GROUND,140.498,-55.677,-168.258,-0.766,0.063,0.526,100.211,305.476
13043,GROUND,140.498,-55.677,-168.258,-0.766,0.063,0.526,100.211,305.476
13048,GROUND,140.368,-55.592,-168.077,-0.777,0.062,0.524,100.211,305.476
13051,GROUND,140.236,-55.510,-167.890,-0.788,0.064,0.523,100.211,305.476
13054,GROUND,140.106,-55.429,-167.702,-0.809,0.063,0.521,100.204,307.400
13058,GROUND,139.976,-55.350,-167.521,-0.818,0.061,0.526,100.204,307.400
13061,GROUND,139.853,-55.273,-167.349,-0.837,0.066,0.533,100.204,307.400
13063,GROUND,139.853,-55.273,-167.349,-0.837,0.066,0.533,100.204,307.400
13066,GROUND,139.853,-55.273,-167.349,-0.837,0.066,0.533,100.204,307.400
13069,GROUND,139.853,-55.273,-167.349,-0.837,0.066,0.533,100.204,307.400
13074,GROUND,139.737,-55.198,-167.188,-0.851,0.069,0.541,100.200,308.500
13077,GROUND,139.630,-55.128,-167.040,-0.864,0.073,0.545,100.211,305.476
13081,GROUND,139.536,-55.062,-166.910,-0.874,0.078,0.548,100.200,308.500
13084,GROUND,139.460,-55.001,-166.802,-0.875,0.088,0.555,100.216,304.099
13087,GROUND,139.406,-54.944,-166.718,-0.875,0.101,0.558,100.204,307.400
13090,GROUND,139.406,-54.944,-166.718,-0.875,0.101,0.558,100.204,307.400
13093,GROUND,139.406,-54.944,-166.718,-0.875,0.101,0.558,100.204,307.400
13095,GROUND,139.406,-54.944,-166.718,-0.875,0.101,0.558,100.204,307.400
13101,GROUND,139.379,-54.892,-166.662,-0.876,0.112,0.567,100.204,307.400
13104,GROUND,139.378,-54.844,-166.635,-0.888,0.120,0.570,100.200,308.500
13107,GROUND,139.406,-54.802,-166.637,-0.897,0.130,0.572,100.204,307.400
13110,GROUND,139.457,-54.763,-166.665,-0.907,0.138,0.576,100.204,307.400
13113,GROUND,139.525,-54.725,-166.713,-0.913,0.143,0.570,100.200,308.500
13116,GROUND,139.525,-54.725,-166.713,-0.913,0.143,0.570,100.200,308.500
13119,GROUND,139.525,-54.725,-166.713,-0.913,0.143,0.570,100.200,308.500
13124,GROUND,139.525,-54.725,-166.713,-0.913,0.143,0.570,100.200,308.500
13133,GROUND,139.604,-54.687,-166.778,-0.909,0.148,0.569,100.200,308.500
13135,GROUND,139.604,-54.687,-166.778,-0.909,0.148,0.569,100.200,308.500
13139,GROUND,139.965,-54.536,-167.099,-0.882,0.150,0.545,100.222,302.444
13142,GROUND,139.965,-54.536,-167.099,-0.882,0.150,0.545,100.222,302.444
13144,GROUND,139.965,-54.536,-167.099,-0.882,0.150,0.545,100.222,302.444
13147,GROUND,139.965,-54.536,-167.099,-0.882,0.150,0.545,100.222,302.444
13150,GROUND,139.965,-54.536,-167.099,-0.882,0.150,0.545,100.222,302.444
13153,GROUND,140.052,-54.503,-167.171,-0.876,0.143,0.538,100.200,308.500
13156,GROUND,140.136,-54.474,-167.233,-0.871,0.140,0.530,100.204,307.400
13159,GROUND,140.215,-54.447,-167.286,-0.866,0.134,0.523,100.204,307.400
13162,GROUND,140.286,-54.423,-167.328,-0.863,0.129,0.521,100.216,304.099
13165,GROUND,140.351,-54.403,-167.362,-0.860,0.120,0.520,100.216,304.099
13168,GROUND,140.351,-54.403,-167.362,-0.860,0.120,0.520,100.216,304.099
13171,GROUND,140.351,-54.403,-167.362,-0.860,0.120,0.520,100.216,304.099
13173,GROUND,140.351,-54.403,-167.362,-0.860,0.120,0.520,100.216,304.099
13176,GROUND,140.351,-54.403,-167.362,-0.860,0.120,0.520,100.216,304.099
13179,GROUND,140.413,-54.387,-167.389,-0.857,0.112,0.519,100.204,307.400
13182,GROUND,140.468,-54.376,-167.410,-0.855,0.100,0.522,100.216,304.099
13185,GROUND,140.516,-54.369,-167.427,-0.850,0.093,0.530,100.204,307.400
13189,GROUND,140.558,-54.366,-167.442,-0.841,0.081,0.535,100.204,307.400
13192,GROUND,140.595,-54.364,-167.454,-0.830,0.077,0.539,100.216,304.099
13194,GROUND,140.595,-54.364,-167.454,-0.830,0.077,0.539,100.216,304.099
13197,GROUND,140.595,-54.364,-167.454,-0.830,0.077,0.539,100.216,304.099
13200,GROUND,140.595,-54.364,-167.454,-0.830,0.077,0.539,100.216,304.099
13202,GROUND,140.595,-54.364,-167.454,-0.830,0.077,0.539,100.216,304.099
13205,GROUND,140.628,-54.364,-167.466,-0.826,0.071,0.540,100.204,307.400
13209,GROUND,140.654,-54.365,-167.477,-0.830,0.071,0.546,100.204,307.400
13212,GROUND,140.677,-54.367,-167.487,-0.831,0.069,0.546,100.204,307.400
13215,GROUND,140.695,-54.371,-167.494,-0.832,0.071,0.552,100.204,307.400
13218,GROUND,140.714,-54.375,-167.503,-0.829,0.069,0.551,100.200,308.500
13221,GROUND,140.714,-54.375,-167.503,-0.829,0.069,0.551,100.200,308.500
13223,GROUND,140.714,-54.375,-167.503,-0.829,0.069,0.551,100.200,308.500
13226,GROUND,140.714,-54.375,-167.503,-0.829,0.069,0.551,100.200,308.500
13232,GROUND,140.736,-54.379,-167.513,-0.825,0.076,0.552,100.216,304.099
13235,GROUND,140.758,-54.382,-167.519,-0.819,0.088,0.546,100.200,308.500
13238,GROUND,140.783,-54.387,-167.520,-0.811,0.096,0.544,100.222,302.444
13241,GROUND,140.806,-54.393,-167.518,-0.804,0.100,0.549,100.216,304.099
13244,GROUND,140.820,-54.400,-167.509,-0.805,0.102,0.543,100.204,307.400
13247,GROUND,140.820,-54.400,-167.509,-0.805,0.102,0.543,100.204,307.400
13250,GROUND,140.820,-54.400,-167.509,-0.805,0.102,0.543,100.204,307.400
13252,GROUND,140.820,-54.400,-167.509,-0.805,0.102,0.543,100.204,307.400
13255,GROUND,140.820,-54.400,-167.509,-0.805,0.102,0.543,100.204,307.400
13258,GROUND,140.823,-54.410,-167.494,-0.803,0.103,0.549,100.204,307.400
13261,GROUND,140.815,-54.420,-167.475,-0.799,0.102,0.552,100.193,310.432
13264,GROUND,140.796,-54.429,-167.451,-0.792,0.105,0.556,100.204,307.400
13267,GROUND,140.765,-54.435,-167.421,-0.788,0.101,0.561,100.216,304.099
13270,GROUND,140.723,-54.438,-167.386,-0.788,0.107,0.560,100.204,307.400
13273,GROUND,140.723,-54.438,-167.386,-0.788,0.107,0.560,100.204,307.400
13276,GROUND,140.723,-54.438,-167.386,-0.788,0.107,0.560,100.204,307.400
13279,GROUND,140.723,-54.438,-167.386,-0.788,0.107,0.560,100.204,307.400
13284,GROUND,140.672,-54.436,-167.341,-0.783,0.115,0.559,100.204,307.400
13287,GROUND,140.613,-54.430,-167.289,-0.781,0.113,0.553,100.204,307.400
13290,GROUND,140.548,-54.421,-167.233,-0.787,0.114,0.549,100.216,304.099
13293,GROUND,140.479,-54.408,-167.171,-0.788,0.116,0.544,100.204,307.400
13297,GROUND,140.406,-54.394,-167.100,-0.794,0.121,0.539,100.204,307.400
13300,GROUND,140.406,-54.394,-167.100,-0.794,0.121,0.539,100.204,307.400
13303,GROUND,140.406,-54.394,-167.100,-0.794,0.121,0.539,100.204,307.400
13305,GROUND,140.406,-54.394,-167.100,-0.794,0.121,0.539,100.204,307.400
13310,GROUND,140.328,-54.376,-167.023,-0.795,0.119,0.539,100.204,307.400
13313,GROUND,140.241,-54.357,-166.941,-0.800,0.118,0.534,100.209,306.022
13316,GROUND,140.147,-54.336,-166.855,-0.799,0.114,0.531,100.204,307.400
13320,GROUND,140.053,-54.312,-166.769,-0.797,0.109,0.530,100.204,307.400
13323,GROUND,139.956,-54.285,-166.685,-0.797,0.105,0.530,100.227,301.066
13326,GROUND,139.956,-54.285,-166.685,-0.797,0.105,0.530,100.227,301.066
13328,GROUND,139.956,-54.285,-166.685,-0.797,0.105,0.530,100.227,301.066
13331,GROUND,139.956,-54.285,-166.685,-0.797,0.105,0.530,100.227,301.066
13336,GROUND,139.853,-54.258,-166.601,-0.803,0.101,0.530,100.204,307.400
13340,GROUND,139.742,-54.230,-166.517,-0.806,0.093,0.532,100.216,304.099
13343,GROUND,139.622,-54.201,-166.432,-0.804,0.091,0.535,100.204,307.400
13346,GROUND,139.496,-54.167,-166.351,-0.771,0.085,0.547,100.204,307.400
13349,GROUND,139.371,-54.125,-166.275,-0.765,0.090,0.554,100.193,310.432
13352,GROUND,139.371,-54.125,-166.275,-0.765,0.090,0.554,100.193,310.432
13355,GROUND,139.371,-54.125,-166.275,-0.765,0.090,0.554,100.193,310.432
13357,GROUND,139.371,-54.125,-166.275,-0.765,0.090,0.554,100.193,310.432
13363,GROUND,139.252,-54.079,-166.205,-0.777,0.100,0.551,100.220,302.998
13366,GROUND,139.139,-54.034,-166.142,-0.787,0.104,0.544,100.204,307.400
13369,GROUND,139.041,-53.991,-166.093,-0.797,0.113,0.538,100.216,304.099
13372,GROUND,138.958,-53.955,-166.060,-0.802,0.123,0.534,100.216,304.099
13375,GROUND,138.888,-53.925,-166.039,-0.812,0.141,0.530,100.193,310.432
13378,GROUND,138.888,-53.925,-166.039,-0.812,0.141,0.530,100.193,310.432
13381,GROUND,138.888,-53.925,-166.039,-0.812,0.141,0.530,100.193,310.432
13384,GROUND,138.888,-53.925,-166.039,-0.812,0.141,0.530,100.193,310.432
13389,GROUND,138.835,-53.901,-166.029,-0.820,0.147,0.529,100.220,302.998
13392,GROUND,138.797,-53.883,-166.035,-0.815,0.156,0.533,100.198,309.055
13395,GROUND,138.772,-53.868,-166.055,-0.816,0.176,0.538,100.204,307.400
13398,GROUND,138.757,-53.856,-166.077,-0.815,0.194,0.541,100.204,307.400
13401,GROUND,138.753,-53.846,-166.105,-0.812,0.203,0.552,100.204,307.400
13404,GROUND,138.753,-53.846,-166.105,-0.812,0.203,0.552,100.204,307.400
13407,GROUND,138.753,-53.846,-166.105,-0.812,0.203,0.552,100.204,307.400
13410,GROUND,138.753,-53.846,-166.105,-0.812,0.203,0.552,100.204,307.400
13415,GROUND,138.765,-53.833,-166.145,-0.814,0.217,0.558,100.209,306.022
13418,GROUND,138.782,-53.820,-166.178,-0.820,0.223,0.561,100.204,307.400
13421,GROUND,138.805,-53.804,-166.210,-0.825,0.223,0.563,100.204,307.400
13424,GROUND,138.829,-53.787,-166.237,-0.828,0.222,0.564,100.209,306.022
13428,GROUND,138.856,-53.768,-166.256,-0.828,0.222,0.560,100.193,310.432
13430,GROUND,138.856,-53.768,-166.256,-0.828,0.222,0.560,100.193,310.432
13433,GROUND,138.856,-53.768,-166.256,-0.828,0.222,0.560,100.193,310.432
13436,GROUND,138.856,-53.768,-166.256,-0.828,0.222,0.560,100.193,310.432
13441,GROUND,138.887,-53.748,-166.265,-0.832,0.215,0.554,100.209,306.022
13444,GROUND,138.922,-53.729,-166.272,-0.833,0.200,0.543,100.204,307.400
13448,GROUND,138.956,-53.710,-166.278,-0.832,0.186,0.541,100.204,307.400
13454,GROUND,138.987,-53.694,-166.283,-0.829,0.169,0.539,100.216,304.099
13456,GROUND,138.987,-53.694,-166.283,-0.829,0.169,0.539,100.216,304.099
13459,GROUND,138.987,-53.694,-166.283,-0.829,0.169,0.539,100.216,304.099
13462,GROUND,138.987,-53.694,-166.283,-0.829,0.169,0.539,100.216,304.099
13467,GROUND,139.022,-53.674,-166.287,-0.827,0.137,0.545,100.220,302.998
13471,GROUND,139.024,-53.668,-166.289,-0.827,0.122,0.551,100.220,302.998
13474,GROUND,139.018,-53.663,-166.293,-0.821,0.104,0.563,100.209,306.022
13480,GROUND,139.004,-53.658,-166.303,-0.822,0.093,0.564,100.216,304.099
13483,GROUND,139.004,-53.658,-166.303,-0.822,0.093,0.564,100.216,304.099
13487,GROUND,139.004,-53.658,-166.303,-0.822,0.093,0.564,100.216,304.099
13490,GROUND,139.004,-53.658,-166.303,-0.822,0.093,0.564,100.216,304.099
13493,GROUND,139.004,-53.658,-166.303,-0.822,0.093,0.564,100.216,304.099
13496,GROUND,139.004,-53.658,-166.303,-0.822,0.093,0.564,100.216,304.099
13498,GROUND,139.004,-53.658,-166.303,-0.822,0.093,0.564,100.216,304.099
13504,GROUND,138.850,-53.682,-166.462,-0.827,0.092,0.590,100.209,306.022
13507,GROUND,138.829,-53.696,-166.482,-0.826,0.109,0.595,100.204,307.400
13513,GROUND,138.809,-53.707,-166.493,-0.811,0.129,0.587,100.209,306.022
13516,GROUND,138.798,-53.711,-166.503,-0.792,0.142,0.583,100.209,306.022
13522,GROUND,138.796,-53.713,-166.519,-0.799,0.154,0.573,100.209,306.022
13525,GROUND,138.796,-53.713,-166.519,-0.799,0.154,0.573,100.209,306.022
13531,GROUND,138.797,-53.711,-166.535,-0.798,0.165,0.566,100.209,306.022
13534,GROUND,138.802,-53.703,-166.548,-0.793,0.182,0.564,100.204,307.400
13542,GROUND,138.809,-53.685,-166.554,-0.772,0.206,0.550,100.204,307.400
13545,GROUND,138.809,-53.685,-166.554,-0.772,0.206,0.550,100.204,307.400
13547,GROUND,138.809,-53.685,-166.554,-0.772,0.206,0.550,100.204,307.400
13550,GROUND,138.809,-53.685,-166.554,-0.772,0.206,0.550,100.204,307.400
13552,GROUND,138.809,-53.685,-166.554,-0.772,0.206,0.550,100.204,307.400
13557,GROUND,138.875,-53.622,-166.553,-0.821,0.237,0.504,100.193,310.432
13560,GROUND,138.909,-53.607,-166.531,-0.816,0.243,0.490,100.193,310.432
13563,GROUND,138.957,-53.592,-166.511,-0.799,0.229,0.470,100.209,306.022
13566,GROUND,139.018,-53.589,-166.496,-0.842,0.210,0.475,100.204,307.400
13569,GROUND,139.086,-53.593,-166.479,-0.856,0.207,0.470,100.209,306.022
13572,GROUND,139.086,-53.593,-166.479,-0.856,0.207,0.470,100.209,306.022
13574,GROUND,139.086,-53.593,-166.479,-0.856,0.207,0.470,100.209,306.022
13577,GROUND,139.086,-53.593,-166.479,-0.856,0.207,0.470,100.209,306.022
13579,GROUND,139.086,-53.593,-166.479,-0.856,0.207,0.470,100.209,306.022
13583,GROUND,139.163,-53.597,-166.452,-0.822,0.211,0.472,100.204,307.400
13586,GROUND,139.250,-53.601,-166.418,-0.820,0.204,0.472,100.204,307.400
13589,GROUND,139.344,-53.605,-166.378,-0.824,0.186,0.478,100.220,302.998
13592,GROUND,139.440,-53.608,-166.334,-0.808,0.160,0.482,100.204,307.400
13595,GROUND,139.529,-53.609,-166.278,-0.807,0.143,0.484,100.209,306.022
13598,GROUND,139.529,-53.609,-166.278,-0.807,0.143,0.484,100.209,306.022
13601,GROUND,139.529,-53.609,-166.278,-0.807,0.143,0.484,100.209,306.022
13603,GROUND,139.529,-53.609,-166.278,-0.807,0.143,0.484,100.209,306.022
13606,GROUND,139.529,-53.609,-166.278,-0.807,0.143,0.484,100.209,306.022
13609,GROUND,139.602,-53.613,-166.208,-0.801,0.112,0.496,100.209,306.022
13612,GROUND,139.653,-53.622,-166.135,-0.787,0.083,0.517,100.204,307.400
13615,GROUND,139.677,-53.640,-166.051,-0.767,0.067,0.543,100.209,306.022
13619,GROUND,139.681,-53.661,-165.957,-0.758,0.056,0.565,100.220,302.998
13622,GROUND,139.671,-53.679,-165.854,-0.768,0.060,0.582,100.209,306.022
13624,GROUND,139.671,-53.679,-165.854,-0.768,0.060,0.582,100.209,306.022
13627,GROUND,139.671,-53.679,-165.854,-0.768,0.060,0.582,100.209,306.022
13629,GROUND,139.671,-53.679,-165.854,-0.768,0.060,0.582,100.209,306.022
13635,GROUND,139.650,-53.690,-165.747,-0.766,0.066,0.594,100.209,306.022
13638,GROUND,139.631,-53.692,-165.640,-0.769,0.067,0.594,100.209,306.022
13642,GROUND,139.617,-53.684,-165.540,-0.777,0.064,0.581,100.213,304.922
13645,GROUND,139.609,-53.669,-165.448,-0.789,0.061,0.572,100.209,306.022
13648,GROUND,139.603,-53.650,-165.366,-0.807,0.055,0.560,100.209,306.022
13650,GROUND,139.603,-53.650,-165.366,-0.807,0.055,0.560,100.209,306.022
13653,GROUND,139.603,-53.650,-165.366,-0.807,0.055,0.560,100.209,306.022
13656,GROUND,139.603,-53.650,-165.366,-0.807,0.055,0.560,100.209,306.022
13658,GROUND,139.603,-53.650,-165.366,-0.807,0.055,0.560,100.209,306.022
13662,GROUND,139.597,-53.631,-165.292,-0.828,0.057,0.555,100.209,306.022
13665,GROUND,139.587,-53.612,-165.222,-0.836,0.065,0.550,100.209,306.022
13668,GROUND,139.575,-53.592,-165.153,-0.844,0.075,0.542,100.209,306.022
13671,GROUND,139.560,-53.570,-165.082,-0.847,0.085,0.538,100.204,307.400
13674,GROUND,139.542,-53.549,-165.009,-0.823,0.093,0.536,100.193,310.432
13677,GROUND,139.542,-53.549,-165.009,-0.823,0.093,0.536,100.193,310.432
13679,GROUND,139.542,-53.549,-165.009,-0.823,0.093,0.536,100.193,310.432
13682,GROUND,139.542,-53.549,-165.009,-0.823,0.093,0.536,100.193,310.432
13685,GROUND,139.542,-53.549,-165.009,-0.823,0.093,0.536,100.193,310.432
13688,GROUND,139.523,-53.531,-164.937,-0.826,0.094,0.534,100.204,307.400
13691,GROUND,139.501,-53.514,-164.864,-0.833,0.099,0.538,100.220,302.998
13694,GROUND,139.471,-53.498,-164.790,-0.836,0.104,0.548,100.209,306.022
13697,GROUND,139.439,-53.481,-164.717,-0.841,0.112,0.551,100.209,306.022
13700,GROUND,139.408,-53.464,-164.646,-0.844,0.132,0.552,100.198,309.055
13703,GROUND,139.408,-53.464,-164.646,-0.844,0.132,0.552,100.198,309.055
13706,GROUND,139.408,-53.464,-164.646,-0.844,0.132,0.552,100.198,309.055
13708,GROUND,139.408,-53.464,-164.646,-0.844,0.132,0.552,100.198,309.055
13714,GROUND,139.381,-53.446,-164.574,-0.842,0.157,0.550,100.204,307.400
13717,GROUND,139.363,-53.428,-164.501,-0.825,0.169,0.544,100.213,304.922
13720,GROUND,139.349,-53.408,-164.432,-0.833,0.174,0.543,100.198,309.055
13723,GROUND,139.336,-53.389,-164.362,-0.841,0.175,0.547,100.209,306.022
13726,GROUND,139.326,-53.371,-164.297,-0.836,0.168,0.546,100.198,309.055
13729,GROUND,139.326,-53.371,-164.297,-0.836,0.168,0.546,100.198,309.055
13732,GROUND,139.326,-53.371,-164.297,-0.836,0.168,0.546,100.198,309.055
13735,GROUND,139.326,-53.371,-164.297,-0.836,0.168,0.546,100.198,309.055
13740,GROUND,139.314,-53.353,-164.240,-0.837,0.162,0.547,100.198,309.055
13743,GROUND,139.307,-53.334,-164.187,-0.832,0.169,0.548,100.198,309.055
13746,GROUND,139.307,-53.315,-164.139,-0.826,0.166,0.549,100.193,310.432
13750,GROUND,139.310,-53.295,-164.097,-0.822,0.161,0.551,100.198,309.055
13753,GROUND,139.318,-53.275,-164.067,-0.816,0.149,0.548,100.204,307.400
13757,GROUND,139.318,-53.275,-164.067,-0.816,0.149,0.548,100.204,307.400
13759,GROUND,139.318,-53.275,-164.067,-0.816,0.149,0.548,100.204,307.400
13762,GROUND,139.318,-53.275,-164.067,-0.816,0.149,0.548,100.204,307.400
13766,GROUND,139.368,-53.210,-164.017,-0.828,0.167,0.570,100.193,310.432
13770,GROUND,139.378,-53.188,-163.997,-0.737,0.170,0.553,100.216,304.099
13772,GROUND,139.378,-53.188,-163.997,-0.737,0.170,0.553,100.216,304.099
13775,GROUND,139.378,-53.188,-163.997,-0.737,0.170,0.553,100.216,304.099
13778,GROUND,139.378,-53.188,-163.997,-0.737,0.170,0.553,100.216,304.099
13783,GROUND,139.398,-53.159,-163.971,-0.760,0.189,0.537,100.213,304.922
13786,GROUND,139.420,-53.128,-163.949,-0.785,0.152,0.541,100.209,306.022
13789,GROUND,139.439,-53.096,-163.930,-0.799,0.139,0.544,100.209,306.022
13793,GROUND,139.450,-53.063,-163.908,-0.807,0.129,0.542,100.209,306.022
13796,GROUND,139.461,-53.031,-163.890,-0.805,0.124,0.546,100.209,306.022
13798,GROUND,139.461,-53.031,-163.890,-0.805,0.124,0.546,100.209,306.022
13801,GROUND,139.461,-53.031,-163.890,-0.805,0.124,0.546,100.209,306.022
13804,GROUND,139.461,-53.031,-163.890,-0.805,0.124,0.546,100.209,306.022
13809,GROUND,139.477,-53.001,-163.880,-0.815,0.120,0.542,100.209,306.022
13813,GROUND,139.496,-52.977,-163.876,-0.828,0.123,0.538,100.198,309.055
13816,GROUND,139.522,-52.959,-163.876,-0.842,0.128,0.536,100.202,307.954
13819,GROUND,139.556,-52.948,-163.882,-0.850,0.132,0.536,100.209,306.022
13822,GROUND,139.592,-52.944,-163.888,-0.842,0.142,0.544,100.209,306.022
13825,GROUND,139.592,-52.944,-163.888,-0.842,0.142,0.544,100.209,306.022
13828,GROUND,139.592,-52.944,-163.888,-0.842,0.142,0.544,100.209,306.022
13831,GROUND,139.592,-52.944,-163.888,-0.842,0.142,0.544,100.209,306.022
13836,GROUND,139.627,-52.946,-163.891,-0.847,0.146,0.545,100.209,306.022
13839,GROUND,139.655,-52.952,-163.888,-0.843,0.150,0.551,100.198,309.055
13842,GROUND,139.676,-52.961,-163.875,-0.831,0.152,0.556,100.209,306.022
13846,GROUND,139.689,-52.971,-163.853,-0.821,0.152,0.557,100.209,306.022
13849,GROUND,139.689,-52.983,-163.820,-0.819,0.149,0.555,100.202,307.954
13852,GROUND,139.689,-52.983,-163.820,-0.819,0.149,0.555,100.202,307.954
13855,GROUND,139.689,-52.983,-163.820,-0.819,0.149,0.555,100.202,307.954
13858,GROUND,139.689,-52.983,-163.820,-0.819,0.149,0.555,100.202,307.954
13862,GROUND,139.675,-52.997,-163.776,-0.818,0.145,0.559,100.198,309.055
13865,GROUND,139.644,-53.014,-163.716,-0.826,0.143,0.560,100.202,307.954
13868,GROUND,139.597,-53.034,-163.641,-0.826,0.136,0.559,100.213,304.922
13871,GROUND,139.536,-53.054,-163.554,-0.827,0.126,0.564,100.198,309.055
13874,GROUND,139.467,-53.076,-163.461,-0.826,0.120,0.569,100.209,306.022
13877,GROUND,139.467,-53.076,-163.461,-0.826,0.120,0.569,100.209,306.022
13880,GROUND,139.467,-53.076,-163.461,-0.826,0.120,0.569,100.209,306.022
13883,GROUND,139.467,-53.076,-163.461,-0.826,0.120,0.569,100.209,306.022
13888,GROUND,139.390,-53.095,-163.362,-0.832,0.116,0.573,100.213,304.922
13891,GROUND,139.312,-53.113,-163.257,-0.834,0.121,0.573,100.209,306.022
13894,GROUND,139.235,-53.128,-163.147,-0.836,0.121,0.563,100.198,309.055
13897,GROUND,139.159,-53.144,-163.033,-0.841,0.124,0.555,100.198,309.055
13901,GROUND,139.083,-53.162,-162.912,-0.845,0.134,0.555,100.213,304.922
13904,GROUND,139.083,-53.162,-162.912,-0.845,0.134,0.555,100.213,304.922
13906,GROUND,139.083,-53.162,-162.912,-0.845,0.134,0.555,100.213,304.922
13909,GROUND,139.083,-53.162,-162.912,-0.845,0.134,0.555,100.213,304.922
13914,GROUND,139.006,-53.181,-162.783,-0.842,0.145,0.548,100.209,306.022
13917,GROUND,138.926,-53.200,-162.645,-0.843,0.153,0.541,100.213,304.922
13921,GROUND,138.844,-53.220,-162.503,-0.845,0.158,0.544,100.213,304.922
13924,GROUND,138.760,-53.238,-162.354,-0.837,0.169,0.538,100.202,307.954
13927,GROUND,138.672,-53.255,-162.200,-0.845,0.171,0.530,100.198,309.055
13936,GROUND,138.672,-53.255,-162.200,-0.845,0.171,0.530,100.198,309.055
13940,GROUND,138.580,-53.273,-162.044,-0.834,0.176,0.534,100.198,309.055
13944,GROUND,138.481,-53.293,-161.883,-0.845,0.177,0.525,100.213,304.922
13947,GROUND,138.377,-53.312,-161.720,-0.837,0.174,0.527,100.213,304.922
13950,GROUND,138.274,-53.330,-161.565,-0.837,0.176,0.531,100.202,307.954
13953,GROUND,138.175,-53.344,-161.417,-0.837,0.172,0.537,100.191,310.987
13956,GROUND,138.175,-53.344,-161.417,-0.837,0.172,0.537,100.191,310.987
13958,GROUND,138.175,-53.344,-161.417,-0.837,0.172,0.537,100.191,310.987
13961,GROUND,138.175,-53.344,-161.417,-0.837,0.172,0.537,100.191,310.987
13963,GROUND,138.175,-53.344,-161.417,-0.837,0.172,0.537,100.191,310.987
13967,GROUND,138.084,-53.354,-161.284,-0.838,0.170,0.537,100.213,304.922
13970,GROUND,138.005,-53.362,-161.167,-0.837,0.168,0.530,100.198,309.055
13973,GROUND,137.939,-53.375,-161.066,-0.830,0.178,0.519,100.209,306.022
13976,GROUND,137.877,-53.393,-160.973,-0.844,0.189,0.509,100.202,307.954
13979,GROUND,137.822,-53.418,-160.887,-0.836,0.194,0.510,100.209,306.022
13982,GROUND,137.822,-53.418,-160.887,-0.836,0.194,0.510,100.209,306.022
13984,GROUND,137.822,-53.418,-160.887,-0.836,0.194,0.510,100.209,306.022
13987,GROUND,137.822,-53.418,-160.887,-0.836,0.194,0.510,100.209,306.022
13990,GROUND,137.822,-53.418,-160.887,-0.836,0.194,0.510,100.209,306.022
13993,GROUND,137.779,-53.450,-160.815,-0.828,0.202,0.512,100.213,304.922
13996,GROUND,137.746,-53.488,-160.751,-0.828,0.210,0.518,100.209,306.022
13999,GROUND,137.720,-53.530,-160.700,-0.809,0.197,0.528,100.202,307.954
14002,GROUND,137.702,-53.575,-160.672,-0.810,0.188,0.541,100.209,306.022
14005,GROUND,137.687,-53.618,-160.646,-0.802,0.197,0.552,100.209,306.022
14008,GROUND,137.687,-53.618,-160.646,-0.802,0.197,0.552,100.209,306.022
14011,GROUND,137.687,-53.618,-160.646,-0.802,0.197,0.552,100.209,306.022
14013,GROUND,137.687,-53.618,-160.646,-0.802,0.197,0.552,100.209,306.022
14016,GROUND,137.687,-53.618,-160.646,-0.802,0.197,0.552,100.209,306.022
14019,GROUND,137.678,-53.657,-160.626,-0.791,0.200,0.555,100.213,304.922
14022,GROUND,137.668,-53.692,-160.607,-0.778,0.189,0.544,100.202,307.954
14026,GROUND,137.597,-53.828,-160.549,-0.783,0.141,0.556,100.209,306.022
14029,GROUND,137.560,-53.864,-160.535,-0.783,0.144,0.555,100.209,306.022
14032,GROUND,137.522,-53.897,-160.516,-0.789,0.145,0.558,100.209,306.022
14035,GROUND,137.489,-53.928,-160.503,-0.788,0.150,0.560,100.213,304.922
14038,GROUND,137.461,-53.957,-160.488,-0.793,0.157,0.553,100.202,307.954
14041,GROUND,137.461,-53.957,-160.488,-0.793,0.157,0.553,100.202,307.954
14043,GROUND,137.461,-53.957,-160.488,-0.793,0.157,0.553,100.202,307.954
14046,GROUND,137.461,-53.957,-160.488,-0.793,0.157,0.553,100.202,307.954
14052,GROUND,137.434,-53.985,-160.468,-0.811,0.169,0.543,100.202,307.954
14055,GROUND,137.401,-54.014,-160.441,-0.830,0.174,0.535,100.213,304.922
14058,GROUND,137.360,-54.049,-160.406,-0.850,0.176,0.526,100.213,304.922
14061,GROUND,137.318,-54.087,-160.363,-0.857,0.182,0.525,100.198,309.055
14064,GROUND,137.275,-54.130,-160.316,-0.856,0.188,0.522,100.202,307.954
14067,GROUND,137.275,-54.130,-160.316,-0.856,0.188,0.522,100.202,307.954
14069,GROUND,137.275,-54.130,-160.316,-0.856,0.188,0.522,100.202,307.954
14072,GROUND,137.275,-54.130,-160.316,-0.856,0.188,0.522,100.202,307.954
14078,GROUND,137.229,-54.175,-160.262,-0.853,0.195,0.519,100.198,309.055
14081,GROUND,137.188,-54.223,-160.208,-0.849,0.202,0.515,100.213,304.922
14084,GROUND,137.153,-54.275,-160.156,-0.849,0.206,0.515,100.213,304.922
14087,GROUND,137.121,-54.331,-160.105,-0.845,0.215,0.507,100.202,307.954
14091,GROUND,137.091,-54.395,-160.066,-0.864,0.196,0.521,100.202,307.954
14093,GROUND,137.091,-54.395,-160.066,-0.864,0.196,0.521,100.202,307.954
14096,GROUND,137.091,-54.395,-160.066,-0.864,0.196,0.521,100.202,307.954
14099,GROUND,137.091,-54.395,-160.066,-0.864,0.196,0.521,100.202,307.954
14104,GROUND,137.061,-54.464,-160.035,-0.836,0.205,0.531,100.202,307.954
14107,GROUND,137.029,-54.533,-160.004,-0.832,0.209,0.527,100.213,304.922
14110,GROUND,136.993,-54.605,-159.976,-0.842,0.190,0.531,100.224,301.889
14114,GROUND,136.959,-54.685,-159.965,-0.841,0.172,0.537,100.202,307.954
14117,GROUND,136.917,-54.770,-159.958,-0.837,0.161,0.541,100.202,307.954
14120,GROUND,136.917,-54.770,-159.958,-0.837,0.161,0.541,100.202,307.954
14122,GROUND,136.917,-54.770,-159.958,-0.837,0.161,0.541,100.202,307.954
14125,GROUND,136.917,-54.770,-159.958,-0.837,0.161,0.541,100.202,307.954
14130,GROUND,136.862,-54.861,-159.951,-0.854,0.142,0.546,100.213,304.922
14133,GROUND,136.793,-54.960,-159.943,-0.859,0.129,0.556,100.202,307.954
14136,GROUND,136.704,-55.064,-159.926,-0.862,0.124,0.560,100.202,307.954
14140,GROUND,136.593,-55.172,-159.890,-0.871,0.116,0.569,100.217,303.821
14143,GROUND,136.466,-55.287,-159.843,-0.872,0.115,0.578,100.198,309.055
14145,GROUND,136.466,-55.287,-159.843,-0.872,0.115,0.578,100.198,309.055
14148,GROUND,136.466,-55.287,-159.843,-0.872,0.115,0.578,100.198,309.055
14151,GROUND,136.466,-55.287,-159.843,-0.872,0.115,0.578,100.198,309.055
14156,GROUND,136.312,-55.404,-159.765,-0.852,0.133,0.594,100.213,304.922
14160,GROUND,136.142,-55.516,-159.658,-0.831,0.160,0.601,100.202,307.954
14163,GROUND,135.958,-55.619,-159.524,-0.817,0.173,0.587,100.213,304.922
14166,GROUND,135.770,-55.714,-159.376,-0.822,0.170,0.567,100.213,304.922
14169,GROUND,135.575,-55.807,-159.220,-0.825,0.167,0.548,100.202,307.954
14172,GROUND,135.575,-55.807,-159.220,-0.825,0.167,0.548,100.202,307.954
14174,GROUND,135.575,-55.807,-159.220,-0.825,0.167,0.548,100.202,307.954
14177,GROUND,135.575,-55.807,-159.220,-0.825,0.167,0.548,100.202,307.954
14183,GROUND,135.368,-55.901,-159.053,-0.828,0.162,0.538,100.213,304.922
14186,GROUND,135.150,-55.995,-158.880,-0.829,0.151,0.527,100.213,304.922
14189,GROUND,134.918,-56.091,-158.710,-0.839,0.134,0.508,100.202,307.954
14192,GROUND,134.671,-56.196,-158.546,-0.848,0.124,0.501,100.198,309.055
14195,GROUND,134.414,-56.310,-158.385,-0.829,0.134,0.500,100.217,303.821
14198,GROUND,134.414,-56.310,-158.385,-0.829,0.134,0.500,100.217,303.821
14201,GROUND,134.414,-56.310,-158.385,-0.829,0.134,0.500,100.217,303.821
14205,GROUND,134.414,-56.310,-158.385,-0.829,0.134,0.500,100.217,303.821
14209,GROUND,134.152,-56.428,-158.225,-0.815,0.141,0.505,100.202,307.954
14212,GROUND,133.889,-56.547,-158.071,-0.819,0.146,0.502,100.213,304.922
14215,GROUND,133.620,-56.666,-157.913,-0.819,0.164,0.501,100.213,304.922
14218,GROUND,133.347,-56.782,-157.750,-0.815,0.177,0.497,100.213,304.922
14221,GROUND,133.076,-56.895,-157.587,-0.823,0.174,0.481,100.213,304.922
14224,GROUND,133.076,-56.895,-157.587,-0.823,0.174,0.481,100.213,304.922
14227,GROUND,133.076,-56.895,-157.587,-0.823,0.174,0.481,100.213,304.922
14230,GROUND,133.076,-56.895,-157.587,-0.823,0.174,0.481,100.213,304.922
14235,GROUND,132.804,-57.005,-157.423,-0.847,0.178,0.479,100.202,307.954
14238,GROUND,132.529,-57.106,-157.249,-0.878,0.195,0.479,100.213,304.922
14241,GROUND,132.260,-57.179,-157.064,-0.799,0.215,0.469,100.213,304.922
14244,GROUND,131.998,-57.244,-156.883,-0.783,0.220,0.461,100.213,304.922
14248,GROUND,131.736,-57.307,-156.698,-0.767,0.206,0.441,100.213,304.922
14250,GROUND,131.736,-57.307,-156.698,-0.767,0.206,0.441,100.213,304.922
14253,GROUND,131.736,-57.307,-156.698,-0.767,0.206,0.441,100.213,304.922
14256,GROUND,131.736,-57.307,-156.698,-0.767,0.206,0.441,100.213,304.922
14261,GROUND,131.470,-57.372,-156.512,-0.782,0.213,0.439,100.202,307.954
14264,GROUND,131.195,-57.431,-156.317,-0.786,0.229,0.439,100.213,304.922
14267,GROUND,130.927,-57.483,-156.126,-0.795,0.233,0.446,100.213,304.922
14271,GROUND,130.676,-57.530,-155.944,-0.810,0.254,0.432,100.202,307.954
14274,GROUND,130.445,-57.565,-155.767,-0.820,0.263,0.418,100.187,312.087
14277,GROUND,130.445,-57.565,-155.767,-0.820,0.263,0.418,100.187,312.087
14279,GROUND,130.445,-57.565,-155.767,-0.820,0.263,0.418,100.187,312.087
14282,GROUND,130.445,-57.565,-155.767,-0.820,0.263,0.418,100.187,312.087
14287,GROUND,129.742,-57.688,-155.233,-0.841,0.242,0.411,100.202,307.954
14291,GROUND,129.622,-57.725,-155.164,-0.837,0.227,0.423,100.202,307.954
14293,GROUND,129.622,-57.725,-155.164,-0.837,0.227,0.423,100.202,307.954
14298,GROUND,129.622,-57.725,-155.164,-0.837,0.227,0.423,100.202,307.954
14301,GROUND,129.622,-57.725,-155.164,-0.837,0.227,0.423,100.202,307.954
14304,GROUND,129.514,-57.760,-155.122,-0.832,0.219,0.436,100.202,307.954
14307,GROUND,129.413,-57.787,-155.102,-0.825,0.205,0.448,100.213,304.922
14311,GROUND,129.317,-57.804,-155.098,-0.775,0.202,0.452,100.213,304.922
14314,GROUND,129.212,-57.815,-155.095,-0.766,0.202,0.448,100.206,306.854
14317,GROUND,129.089,-57.831,-155.081,-0.841,0.199,0.438,100.202,307.954
14320,GROUND,129.089,-57.831,-155.081,-0.841,0.199,0.438,100.202,307.954
14323,GROUND,129.089,-57.831,-155.081,-0.841,0.199,0.438,100.202,307.954
14333,GROUND,129.089,-57.831,-155.081,-0.841,0.199,0.438,100.202,307.954
14337,GROUND,128.734,-57.870,-154.983,-0.918,0.216,0.440,100.206,306.854
14340,GROUND,128.648,-57.883,-154.946,-0.870,0.219,0.457,100.202,307.954
14343,GROUND,128.575,-57.890,-154.904,-0.859,0.219,0.470,100.202,307.954
14346,GROUND,128.575,-57.890,-154.904,-0.859,0.219,0.470,100.202,307.954
14348,GROUND,128.575,-57.890,-154.904,-0.859,0.219,0.470,100.202,307.954
14351,GROUND,128.575,-57.890,-154.904,-0.859,0.219,0.470,100.202,307.954
14353,GROUND,128.575,-57.890,-154.904,-0.859,0.219,0.470,100.202,307.954
14357,GROUND,128.518,-57.888,-154.862,-0.844,0.220,0.467,100.213,304.922
14360,GROUND,128.478,-57.875,-154.825,-0.841,0.221,0.463,100.202,307.954
14363,GROUND,128.450,-57.851,-154.798,-0.843,0.223,0.455,100.213,304.922
14366,GROUND,128.429,-57.820,-154.777,-0.850,0.221,0.440,100.206,306.854
14369,GROUND,128.416,-57.782,-154.767,-0.848,0.219,0.440,100.206,306.854
14372,GROUND,128.416,-57.782,-154.767,-0.848,0.219,0.440,100.206,306.854
14374,GROUND,128.416,-57.782,-154.767,-0.848,0.219,0.440,100.206,306.854
14377,GROUND,128.416,-57.782,-154.767,-0.848,0.219,0.440,100.206,306.854
14379,GROUND,128.416,-57.782,-154.767,-0.848,0.219,0.440,100.206,306.854
14383,GROUND,128.414,-57.738,-154.768,-0.846,0.221,0.442,100.202,307.954
14386,GROUND,128.420,-57.691,-154.784,-0.832,0.217,0.434,100.213,304.922
14389,GROUND,128.437,-57.642,-154.818,-0.818,0.218,0.438,100.202,307.954
14392,GROUND,128.460,-57.591,-154.863,-0.803,0.225,0.434,100.202,307.954
14395,GROUND,128.485,-57.539,-154.917,-0.799,0.228,0.437,100.202,307.954
14398,GROUND,128.485,-57.539,-154.917,-0.799,0.228,0.437,100.202,307.954
14401,GROUND,128.485,-57.539,-154.917,-0.799,0.228,0.437,100.202,307.954
14403,GROUND,128.485,-57.539,-154.917,-0.799,0.228,0.437,100.202,307.954
14406,GROUND,128.485,-57.539,-154.917,-0.799,0.228,0.437,100.202,307.954
14409,GROUND,128.509,-57.487,-154.974,-0.801,0.235,0.438,100.202,307.954
14412,GROUND,128.531,-57.434,-155.030,-0.810,0.243,0.433,100.206,306.854
14415,GROUND,128.551,-57.382,-155.082,-0.818,0.250,0.435,100.202,307.954
14419,GROUND,128.569,-57.332,-155.128,-0.822,0.247,0.441,100.213,304.922
14422,GROUND,128.580,-57.284,-155.161,-0.831,0.244,0.444,100.217,303.821
14424,GROUND,128.580,-57.284,-155.161,-0.831,0.244,0.444,100.217,303.821
14427,GROUND,128.580,-57.284,-155.161,-0.831,0.244,0.444,100.217,303.821
14429,GROUND,128.580,-57.284,-155.161,-0.831,0.244,0.444,100.217,303.821
14432,GROUND,128.580,-57.284,-155.161,-0.831,0.244,0.444,100.217,303.821
14435,GROUND,128.586,-57.237,-155.182,-0.834,0.239,0.452,100.206,306.854
14438,GROUND,128.586,-57.191,-155.192,-0.840,0.226,0.461,100.206,306.854
14442,GROUND,128.583,-57.147,-155.195,-0.845,0.220,0.470,100.202,307.954
14445,GROUND,128.576,-57.105,-155.191,-0.847,0.208,0.477,100.202,307.954
14448,GROUND,128.563,-57.064,-155.187,-0.847,0.203,0.477,100.206,306.854
14450,GROUND,128.563,-57.064,-155.187,-0.847,0.203,0.477,100.206,306.854
14453,GROUND,128.563,-57.064,-155.187,-0.847,0.203,0.477,100.206,306.854
14456,GROUND,128.563,-57.064,-155.187,-0.847,0.203,0.477,100.206,306.854
14458,GROUND,128.563,-57.064,-155.187,-0.847,0.203,0.477,100.206,306.854
14462,GROUND,128.549,-57.027,-155.187,-0.851,0.201,0.479,100.195,309.878
14465,GROUND,128.534,-56.993,-155.189,-0.849,0.205,0.482,100.213,304.922
14468,GROUND,128.517,-56.961,-155.194,-0.837,0.213,0.477,100.217,303.821
14471,GROUND,128.495,-56.931,-155.197,-0.835,0.224,0.474,100.195,309.878
14474,GROUND,128.463,-56.903,-155.191,-0.848,0.232,0.470,100.213,304.922
14477,GROUND,128.463,-56.903,-155.191,-0.848,0.232,0.470,100.213,304.922
14479,GROUND,128.463,-56.903,-155.191,-0.848,0.232,0.470,100.213,304.922
14482,GROUND,128.463,-56.903,-155.191,-0.848,0.232,0.470,100.213,304.922
14485,GROUND,128.463,-56.903,-155.191,-0.848,0.232,0.470,100.213,304.922
14488,GROUND,128.416,-56.877,-155.172,-0.864,0.227,0.468,100.213,304.922
14491,GROUND,128.354,-56.855,-155.137,-0.874,0.216,0.471,100.206,306.854
14494,GROUND,128.281,-56.838,-155.088,-0.875,0.209,0.480,100.202,307.954
14497,GROUND,128.202,-56.825,-155.029,-0.876,0.200,0.489,100.206,306.854
14500,GROUND,128.119,-56.815,-154.962,-0.869,0.198,0.503,100.217,303.821
14503,GROUND,128.119,-56.815,-154.962,-0.869,0.198,0.503,100.217,303.821
14506,GROUND,128.119,-56.815,-154.962,-0.869,0.198,0.503,100.217,303.821
14508,GROUND,128.119,-56.815,-154.962,-0.869,0.198,0.503,100.217,303.821
14514,GROUND,128.034,-56.805,-154.893,-0.867,0.198,0.506,100.206,306.854
14517,GROUND,127.952,-56.792,-154.826,-0.862,0.205,0.503,100.206,306.854
14520,GROUND,127.875,-56.775,-154.763,-0.861,0.216,0.498,100.206,306.854
14523,GROUND,127.805,-56.757,-154.707,-0.862,0.223,0.491,100.206,306.854
14526,GROUND,127.745,-56.737,-154.662,-0.867,0.232,0.481,100.206,306.854
14529,GROUND,127.745,-56.737,-154.662,-0.867,0.232,0.481,100.206,306.854
14532,GROUND,127.745,-56.737,-154.662,-0.867,0.232,0.481,100.206,306.854
14535,GROUND,127.745,-56.737,-154.662,-0.867,0.232,0.481,100.206,306.854
14540,GROUND,127.696,-56.715,-154.627,-0.871,0.244,0.468,100.202,307.954
14543,GROUND,127.660,-56.694,-154.603,-0.877,0.253,0.458,100.195,309.878
14546,GROUND,127.632,-56.629,-154.603,-0.889,0.286,0.432,100.202,307.954
14549,GROUND,127.632,-56.629,-154.603,-0.889,0.286,0.432,100.202,307.954
14552,GROUND,127.632,-56.629,-154.603,-0.889,0.286,0.432,100.202,307.954
14556,GROUND,127.632,-56.629,-154.603,-0.889,0.286,0.432,100.202,307.954
14560,GROUND,127.661,-56.609,-154.630,-0.895,0.294,0.423,100.217,303.821
14563,GROUND,127.711,-56.590,-154.672,-0.898,0.301,0.421,100.195,309.878
14566,GROUND,127.785,-56.573,-154.733,-0.901,0.309,0.415,100.206,306.854
14570,GROUND,127.886,-56.556,-154.812,-0.916,0.323,0.411,100.206,306.854
14573,GROUND,128.014,-56.541,-154.906,-0.936,0.334,0.405,100.206,306.854
14575,GROUND,128.014,-56.541,-154.906,-0.936,0.334,0.405,100.206,306.854
14578,GROUND,128.014,-56.541,-154.906,-0.936,0.334,0.405,100.206,306.854
14581,GROUND,128.014,-56.541,-154.906,-0.936,0.334,0.405,100.206,306.854
14586,GROUND,128.170,-56.530,-155.020,-0.949,0.336,0.400,100.217,303.821
14589,GROUND,128.359,-56.522,-155.153,-0.959,0.336,0.396,100.217,303.821
14593,GROUND,128.588,-56.516,-155.308,-0.967,0.335,0.401,100.206,306.854
14596,GROUND,128.856,-56.511,-155.482,-0.972,0.339,0.407,100.202,307.954
14599,GROUND,129.157,-56.510,-155.670,-0.990,0.333,0.410,100.206,306.854
14602,GROUND,129.157,-56.510,-155.670,-0.990,0.333,0.410,100.206,306.854
14605,GROUND,129.157,-56.510,-155.670,-0.990,0.333,0.410,100.206,306.854
14607,GROUND,129.157,-56.510,-155.670,-0.990,0.333,0.410,100.206,306.854
14613,GROUND,129.487,-56.517,-155.870,-0.992,0.323,0.419,100.217,303.821
14616,GROUND,129.834,-56.530,-156.076,-0.998,0.316,0.426,100.206,306.854
14619,GROUND,130.192,-56.548,-156.284,-0.992,0.305,0.453,100.206,306.854
14622,GROUND,130.564,-56.572,-156.499,-0.980,0.289,0.466,100.195,309.878
14625,GROUND,130.947,-56.604,-156.720,-0.971,0.262,0.466,100.202,307.954
14628,GROUND,130.947,-56.604,-156.720,-0.971,0.262,0.466,100.202,307.954
14631,GROUND,130.947,-56.604,-156.720,-0.971,0.262,0.466,100.202,307.954
14634,GROUND,130.947,-56.604,-156.720,-0.971,0.262,0.466,100.202,307.954
14639,GROUND,131.337,-56.649,-156.947,-0.966,0.243,0.472,100.217,303.821
14642,GROUND,131.729,-56.708,-157.178,-0.974,0.221,0.485,100.195,309.878
14646,GROUND,132.129,-56.779,-157.415,-0.960,0.205,0.489,100.206,306.854
14649,GROUND,132.533,-56.862,-157.657,-0.959,0.192,0.498,100.213,304.922
14652,GROUND,132.946,-56.955,-157.906,-0.930,0.188,0.502,100.217,303.821
14655,GROUND,132.946,-56.955,-157.906,-0.930,0.188,0.502,100.217,303.821
14658,GROUND,132.946,-56.955,-157.906,-0.930,0.188,0.502,100.217,303.821
14661,GROUND,132.946,-56.955,-157.906,-0.930,0.188,0.502,100.217,303.821
14665,GROUND,133.374,-57.056,-158.164,-0.904,0.178,0.497,100.206,306.854
14668,GROUND,133.819,-57.165,-158.439,-0.865,0.159,0.495,100.195,309.878
14671,GROUND,134.274,-57.280,-158.731,-0.888,0.143,0.496,100.217,303.821
14674,GROUND,134.723,-57.398,-159.024,-0.861,0.138,0.515,100.206,306.854
14677,GROUND,135.166,-57.519,-159.313,-0.817,0.138,0.520,100.217,303.821
14680,GROUND,135.166,-57.519,-159.313,-0.817,0.138,0.520,100.217,303.821
14683,GROUND,135.166,-57.519,-159.313,-0.817,0.138,0.520,100.217,303.821
14686,GROUND,135.166,-57.519,-159.313,-0.817,0.138,0.520,100.217,303.821
14691,GROUND,135.607,-57.642,-159.601,-0.795,0.139,0.502,100.195,309.878
14694,GROUND,136.051,-57.764,-159.891,-0.793,0.144,0.498,100.206,306.854
14697,GROUND,136.504,-57.884,-160.185,-0.793,0.151,0.492,100.195,309.878
14701,GROUND,136.965,-58.001,-160.486,-0.781,0.155,0.491,100.195,309.878
14704,GROUND,137.431,-58.115,-160.792,-0.771,0.158,0.486,100.206,306.854
14707,GROUND,137.431,-58.115,-160.792,-0.771,0.158,0.486,100.206,306.854
14710,GROUND,137.431,-58.115,-160.792,-0.771,0.158,0.486,100.206,306.854
14713,GROUND,137.431,-58.115,-160.792,-0.771,0.158,0.486,100.206,306.854
14722,GROUND,137.900,-58.224,-161.100,-0.762,0.159,0.481,100.211,305.476
14724,GROUND,137.900,-58.224,-161.100,-0.762,0.159,0.481,100.211,305.476
14727,GROUND,137.900,-58.224,-161.100,-0.762,0.159,0.481,100.211,305.476
14730,GROUND,139.776,-58.600,-162.340,-0.764,0.199,0.457,100.199,308.777
14732,GROUND,139.776,-58.600,-162.340,-0.764,0.199,0.457,100.199,308.777
14735,GROUND,139.776,-58.600,-162.340,-0.764,0.199,0.457,100.199,308.777
14739,GROUND,139.776,-58.600,-162.340,-0.764,0.199,0.457,100.199,308.777
14744,GROUND,140.245,-58.674,-162.642,-0.767,0.204,0.456,100.211,305.476
14747,GROUND,140.712,-58.741,-162.939,-0.767,0.207,0.451,100.206,306.854
14750,GROUND,141.175,-58.799,-163.228,-0.768,0.207,0.447,100.206,306.854
14753,GROUND,141.633,-58.847,-163.509,-0.763,0.206,0.443,100.206,306.854
14756,GROUND,142.083,-58.886,-163.781,-0.761,0.203,0.446,100.211,305.476
14760,GROUND,142.083,-58.886,-163.781,-0.761,0.203,0.446,100.211,305.476
14762,GROUND,142.083,-58.886,-163.781,-0.761,0.203,0.446,100.211,305.476
14765,GROUND,142.083,-58.886,-163.781,-0.761,0.203,0.446,100.211,305.476
14770,GROUND,142.529,-58.916,-164.046,-0.764,0.202,0.449,100.211,305.476
14773,GROUND,142.968,-58.938,-164.304,-0.768,0.195,0.449,100.222,302.444
14776,GROUND,143.401,-58.952,-164.557,-0.776,0.188,0.447,100.206,306.854
14779,GROUND,143.830,-58.959,-164.805,-0.785,0.186,0.451,100.206,306.854
14782,GROUND,144.257,-58.961,-165.049,-0.794,0.182,0.452,100.222,302.444
14785,GROUND,144.257,-58.961,-165.049,-0.794,0.182,0.452,100.222,302.444
14788,GROUND,144.257,-58.961,-165.049,-0.794,0.182,0.452,100.222,302.444
14790,GROUND,144.257,-58.961,-165.049,-0.794,0.182,0.452,100.222,302.444
14793,GROUND,144.257,-58.961,-165.049,-0.794,0.182,0.452,100.222,302.444
14796,GROUND,144.686,-58.956,-165.292,-0.807,0.176,0.445,100.211,305.476
14799,GROUND,145.116,-58.948,-165.534,-0.811,0.169,0.450,100.206,306.854
14802,GROUND,145.548,-58.935,-165.775,-0.815,0.167,0.448,100.206,306.854
14805,GROUND,145.984,-58.918,-166.015,-0.817,0.160,0.451,100.206,306.854
14809,GROUND,148.456,-58.776,-167.238,-0.821,0.088,0.466,100.206,306.854
14811,GROUND,148.456,-58.776,-167.238,-0.821,0.088,0.466,100.206,306.854
14814,GROUND,148.456,-58.776,-167.238,-0.821,0.088,0.466,100.206,306.854
14816,GROUND,148.456,-58.776,-167.238,-0.821,0.088,0.466,100.206,306.854
14819,GROUND,148.456,-58.776,-167.238,-0.821,0.088,0.466,100.206,306.854
14822,GROUND,148.789,-58.755,-167.358,-0.808,0.086,0.467,100.206,306.854
14826,GROUND,149.096,-58.733,-167.446,-0.800,0.084,0.472,100.206,306.854
14829,GROUND,149.376,-58.711,-167.505,-0.805,0.079,0.480,100.206,306.854
14832,GROUND,149.636,-58.689,-167.536,-0.820,0.071,0.485,100.211,305.476
14835,GROUND,149.882,-58.666,-167.546,-0.827,0.067,0.490,100.211,305.476
14837,GROUND,149.882,-58.666,-167.546,-0.827,0.067,0.490,100.211,305.476
14840,GROUND,149.882,-58.666,-167.546,-0.827,0.067,0.490,100.211,305.476
14843,GROUND,149.882,-58.666,-167.546,-0.827,0.067,0.490,100.211,305.476
14848,GROUND,150.115,-58.643,-167.538,-0.833,0.069,0.494,100.211,305.476
14852,GROUND,150.342,-58.620,-167.522,-0.845,0.071,0.501,100.222,302.444
14855,GROUND,150.575,-58.602,-167.508,-0.874,0.071,0.504,100.211,305.476
14858,GROUND,150.826,-58.588,-167.506,-0.892,0.082,0.507,100.206,306.854
14861,GROUND,151.100,-58.578,-167.520,-0.905,0.086,0.506,100.206,306.854
14864,GROUND,151.100,-58.578,-167.520,-0.905,0.086,0.506,100.206,306.854
14866,GROUND,151.100,-58.578,-167.520,-0.905,0.086,0.506,100.206,306.854
14869,GROUND,151.100,-58.578,-167.520,-0.905,0.086,0.506,100.206,306.854
14875,GROUND,151.405,-58.574,-167.560,-0.921,0.083,0.503,100.217,303.821
14878,GROUND,151.746,-58.574,-167.632,-0.936,0.085,0.508,100.195,309.878
14881,GROUND,152.129,-58.581,-167.734,-0.931,0.130,0.496,100.211,305.476
14884,GROUND,152.552,-58.587,-167.857,-0.915,0.125,0.493,100.202,307.954
14887,GROUND,153.016,-58.592,-168.015,-0.917,0.112,0.490,100.188,311.810
14890,GROUND,153.016,-58.592,-168.015,-0.917,0.112,0.490,100.188,311.810
14893,GROUND,153.016,-58.592,-168.015,-0.917,0.112,0.490,100.188,311.810
14895,GROUND,153.016,-58.592,-168.015,-0.917,0.112,0.490,100.188,311.810
14901,GROUND,153.514,-58.592,-168.205,-0.905,0.123,0.500,100.206,306.854
14904,GROUND,154.031,-58.596,-168.417,-0.931,0.107,0.514,100.222,302.444
14907,GROUND,154.553,-58.599,-168.636,-0.872,0.152,0.513,100.206,306.854
14910,GROUND,155.052,-58.591,-168.827,-0.847,0.288,0.548,100.199,308.777
14913,GROUND,155.510,-58.572,-168.979,-0.857,0.148,0.481,100.211,305.476
14917,GROUND,155.510,-58.572,-168.979,-0.857,0.148,0.481,100.211,305.476
14920,GROUND,155.510,-58.572,-168.979,-0.857,0.148,0.481,100.211,305.476
14923,GROUND,155.510,-58.572,-168.979,-0.857,0.148,0.481,100.211,305.476
14927,GROUND,155.967,-58.561,-169.160,-0.930,0.051,0.490,100.206,306.854
14930,GROUND,156.381,-58.550,-169.310,-0.810,0.119,0.501,100.222,302.444
14933,GROUND,156.755,-58.540,-169.428,-0.888,0.073,0.500,100.206,306.854
14936,GROUND,157.124,-58.548,-169.553,-0.946,0.058,0.485,100.206,306.854
14940,GROUND,157.465,-58.566,-169.648,-0.890,0.093,0.475,100.206,306.854
14942,GROUND,157.465,-58.566,-169.648,-0.890,0.093,0.475,100.206,306.854
14945,GROUND,157.465,-58.566,-169.648,-0.890,0.093,0.475,100.206,306.854
14948,GROUND,157.465,-58.566,-169.648,-0.890,0.093,0.475,100.206,306.854
14953,GROUND,157.773,-58.593,-169.710,-0.893,0.083,0.459,100.211,305.476
14956,GROUND,158.055,-58.632,-169.746,-0.901,0.071,0.453,100.211,305.476
14960,GROUND,158.302,-58.683,-169.746,-0.895,0.085,0.444,100.206,306.854
14963,GROUND,158.512,-58.746,-169.703,-0.894,0.082,0.439,100.217,303.821
14966,GROUND,158.682,-58.819,-169.619,-0.899,0.077,0.435,100.222,302.444
14969,GROUND,158.682,-58.819,-169.619,-0.899,0.077,0.435,100.222,302.444
14971,GROUND,158.682,-58.819,-169.619,-0.899,0.077,0.435,100.222,302.444
14974,GROUND,158.682,-58.819,-169.619,-0.899,0.077,0.435,100.222,302.444
14979,GROUND,158.813,-58.904,-169.491,-0.888,0.078,0.442,100.199,308.777
14983,GROUND,158.899,-58.996,-169.318,-0.881,0.072,0.447,100.199,308.777
14986,GROUND,158.941,-59.098,-169.116,-0.873,0.016,0.471,100.199,308.777
14989,GROUND,158.928,-59.206,-168.877,-0.841,0.055,0.490,100.211,305.476
14992,GROUND,158.864,-59.312,-168.590,-0.834,0.040,0.496,100.199,308.777
14995,GROUND,158.864,-59.312,-168.590,-0.834,0.040,0.496,100.199,308.777
14998,GROUND,158.864,-59.312,-168.590,-0.834,0.040,0.496,100.199,308.777
15000,GROUND,158.864,-59.312,-168.590,-0.834,0.040,0.496,100.199,308.777
15006,GROUND,158.759,-59.415,-168.273,-0.826,0.032,0.513,100.211,305.476
15009,GROUND,158.616,-59.512,-167.927,-0.828,0.037,0.514,100.211,305.476
15012,GROUND,158.441,-59.601,-167.555,-0.834,0.033,0.513,100.195,309.878
15015,GROUND,158.245,-59.683,-167.161,-0.842,0.028,0.510,100.195,309.878
15018,GROUND,158.033,-59.759,-166.755,-0.853,0.024,0.498,100.211,305.476
15021,GROUND,158.033,-59.759,-166.755,-0.853,0.024,0.498,100.211,305.476
15024,GROUND,158.033,-59.759,-166.755,-0.853,0.024,0.498,100.211,305.476
